Filename, Temp, Humidity, Pressure, yaw, pitch, roll, mag_x, mag_y, mag_z, acc_x, acc_y, acc_z, gyro_x, gyro_y, gyro_z, datetime, gps_lattitude, gps_longitude, whatispicture 
10001, 37.30357360839844, 28.73601531982422, 996.810302734375, 3.9538846661727227, 62.03745392925609, 122.99659857348557, -3.963944911956787, -22.39340591430664, -2.8552868366241455, -0.004689877387136221, 0.030834658071398735, 0.015352901071310043, 0.22611819207668304, 0.07992690056562424, 0.0015202900394797325, '2018-04-28 06:34:43.918754', -18:37:29.2, 148:08:51.5, UNKNOWN
10002, 37.41741180419922, 28.46147346496582, 996.837158203125, 333.8663865467579, 223.63480876783186, 145.55568887366218, -4.838014125823975, -28.81641960144043, -4.995580196380615, -0.002221520757302642, 0.030106279999017715, 0.018520960584282875, 0.22703446447849274, 0.07839974015951157, 0.0012148581445217133, '2018-04-28 06:35:16.939860', -20:16:51.8, 149:32:26.1, UNKNOWN
10003, 37.265625, 28.94377899169922, 996.807373046875, 0.029414209660659912, 37.58433851185659, 116.66260898629591, -4.050327301025391, -29.893590927124023, -5.759787082672119, -0.0034556991886347532, 0.030349070206284523, 0.01730247773230076, 0.22611819207668304, 0.08084319531917572, 0.0006039924919605255, '2018-04-28 06:35:50.005861', -21:52:31.6, 150:55:26.5, UNKNOWN
10004, 37.265625, 28.799087524414062, 996.806884765625, 349.94794315037416, 174.41327909810107, 153.17868542139502, -2.988978385925293, -29.531829833984375, -7.472902297973633, -0.0034556991886347532, 0.030349070206284523, 0.01437811367213726, 0.2230638563632965, 0.08084319531917572, -0.001228603534400463, '2018-04-28 06:36:23.098899', -23:27:19.5, 152:20:29.9, UNKNOWN
10005, 37.36048889160156, 27.882705688476562, 996.7724609375, 338.5463672792535, 332.5594810754947, 116.10641302180343, -2.7127468585968018, -29.290788650512695, -8.66242504119873, -0.003208863316103816, 0.031077450141310692, 0.015352901071310043, 0.2239801436662674, 0.08084319531917572, 0.0012148581445217133, '2018-04-28 06:36:56.130379', -25:01:10.0, 153:47:48.1, UNKNOWN
10006, 37.3984375, 27.47460174560547, 996.791259765625, 4.9859330799508195, 120.02591707701525, 144.24519413799018, -2.0210342407226562, -29.133838653564453, -9.538081169128418, -0.0024683563970029354, 0.031077450141310692, 0.016815081238746643, 0.23008881509304047, 0.07839974015951157, -0.0015340354293584824, '2018-04-28 06:37:29.265005', -26:33:57.4, 155:17:33.2, UNKNOWN
10007, 37.49330139160156, 28.531963348388672, 996.779541015625, 329.90252895062326, 279.70831909875125, 132.22709380275924, -1.1900230646133423, -28.573841094970703, -10.779714584350586, -0.0034556991886347532, 0.0313202403485775, 0.017058778554201126, 0.23039422929286957, 0.07870516926050186, 0.0006039924919605255, '2018-04-28 06:38:02.319666', -28:05:35.3, 156:49:58.1, UNKNOWN
10008, 37.34151840209961, 28.687786102294922, 996.8076171875, 8.356350543822495, 78.4745705442694, 133.23186927118147, 0.1065625548362732, -28.96416473388672, -11.766733169555664, -0.003949370235204697, 0.02986348792910576, 0.017058778554201126, 0.2282562106847763, 0.08145406097173691, -0.0006177378818392754, '2018-04-28 06:38:35.387035', -29:35:57.2, 158:25:16.0, UNKNOWN
10009, 37.37946319580078, 29.22945213317871, 996.82861328125, 332.51578323273225, 239.05972549879516, 147.25053201430916, 0.45560529828071594, -28.454479217529297, -12.030240058898926, -0.002715192036703229, 0.030834658071398735, 0.018520960584282875, 0.22459101676940918, 0.07962147146463394, -6.872229278087616e-06, '2018-04-28 06:39:08.342216', -31:04:55.7, 160:03:40.6, UNKNOWN
10010, 37.3984375, 28.52454376220703, 996.818359375, 2.9140756633936107, 48.40197162875528, 126.11018128777091, 1.650352120399475, -27.852489471435547, -13.104676246643066, -0.0037025348283350468, 0.03204862028360367, 0.017546173185110092, 0.2282562106847763, 0.08023233711719513, 0.0009094253182411194, '2018-04-28 06:39:41.280924', -32:32:23.1, 161:45:26.2, UNKNOWN
10011, 37.43638610839844, 28.539382934570312, 996.8330078125, 340.71572927475063, 211.34074146937573, 153.84740192227426, 2.5845863819122314, -27.22926902770996, -14.315537452697754, -0.005677219945937395, 0.031077450141310692, 0.01803356595337391, 0.2285616248846054, 0.07839974015951157, 0.0012148581445217133, '2018-04-28 06:40:14.234659', -33:58:11.1, 163:30:47.5, UNKNOWN
10012, 37.36048889160156, 28.557933807373047, 996.822509765625, 0.02464076120446725, 23.01464001215437, 115.28284247206163, 3.047433853149414, -27.156618118286133, -14.960740089416504, -0.0024683563970029354, 0.030349070206284523, 0.01584029383957386, 0.22978337109088898, 0.08053776621818542, -0.0003123050555586815, '2018-04-28 06:40:47.010979', -35:22:10.6, 165:19:59.3, UNKNOWN
10013, 37.45535659790039, 28.394691467285156, 996.833984375, 342.44871048417565, 170.0586783323811, 162.22270282594897, 3.291633129119873, -26.87710189819336, -14.785760879516602, -0.0029620276764035225, 0.030834658071398735, 0.01584029383957386, 0.22611819207668304, 0.08053776621818542, 0.00029855966567993164, '2018-04-28 06:41:19.750061', -36:44:12.1, 167:13:16.9, UNKNOWN
10014, 37.43638610839844, 28.606164932250977, 996.818603515625, 317.49200351172385, 341.9697383459866, 111.49944359644066, 4.2903947830200195, -26.458396911621094, -16.008773803710938, -0.0029620276764035225, 0.032291412353515625, 0.01657138578593731, 0.2291725128889084, 0.07778887450695038, 0.002436588518321514, '2018-04-28 06:41:52.478449', -38:01:41.7, 169:07:17.4, UNKNOWN
10015, 37.41741180419922, 28.799087524414062, 996.8505859375, 344.0296994940004, 120.20508659932302, 126.74092193686491, 5.608866214752197, -26.507097244262695, -16.967731475830078, -0.0029620276764035225, 0.030834658071398735, 0.01730247773230076, 0.22581274807453156, 0.08053776621818542, 0.0006039924919605255, '2018-04-28 06:42:25.295708', -39:19:19.3, 171:09:23.0, UNKNOWN
10016, 37.37946319580078, 28.698915481567383, 996.85498046875, 308.76617729984406, 285.9392616219329, 97.39024669586445, 6.1121625900268555, -26.778535842895508, -16.791763305664062, -0.003949370235204697, 0.030106279999017715, 0.01730247773230076, 0.22642360627651215, 0.08420296013355255, -0.0003123050555586815, '2018-04-28 06:42:58.018393', -40:34:25.6, 173:16:18.5, UNKNOWN
10017, 37.45535659790039, 30.234874725341797, 996.87451171875, 344.081197412795, 82.82768232875031, 83.94367376742787, 7.112355709075928, -26.358488082885742, -16.946596145629883, -0.003949370235204697, 0.03204862028360367, 0.016083991155028343, 0.22672905027866364, 0.07901060581207275, -0.0018394682556390762, '2018-04-28 06:43:30.717334', -41:46:47.9, 175:28:17.4, UNKNOWN
10018, 37.47433090209961, 29.741437911987305, 996.86279296875, 305.3263232790964, 229.04124500535545, 95.6160026061161, 7.578242778778076, -25.65144157409668, -17.47247314453125, -0.0034556991886347532, 0.03204862028360367, 0.01730247773230076, 0.22581274807453156, 0.07992690056562424, -0.0009231707081198692, '2018-04-28 06:44:03.434198', -42:54:09.3, 177:41:17.8, UNKNOWN
10019, 37.53125, 28.3724308013916, 996.8955078125, 331.2933057297996, 55.06740980579815, 50.144284584133835, 8.57059097290039, -24.921764373779297, -17.166183471679688, -0.0037025348283350468, 0.03059186413884163, 0.01584029383957386, 0.22581274807453156, 0.08084319531917572, 0.0012148581445217133, '2018-04-28 06:44:36.107791', -44:00:28.5, -179:56:11.0, UNKNOWN
10020, 37.37946319580078, 29.574485778808594, 996.884521484375, 304.1718198187837, 185.313376731315, 89.4815911464742, 9.001296043395996, -24.794437408447266, -17.528118133544922, -0.0029620276764035225, 0.031563032418489456, 0.016327690333127975, 0.2291725128889084, 0.07962147146463394, -0.0003123050555586815, '2018-04-28 06:45:08.992506', -45:03:21.6, -177:28:05.4, UNKNOWN
10021, 37.53125, 28.78424644470215, 996.852783203125, 315.5552179952021, 41.980695639067434, 18.98347773193848, 10.295948028564453, -24.210166931152344, -17.398441314697266, -0.0029620276764035225, 0.030349070206284523, 0.01730247773230076, 0.22642360627651215, 0.07931603491306305, 0.0006039924919605255, '2018-04-28 06:45:41.650639', -46:02:33.1, -174:54:20.1, UNKNOWN
10022, 37.51227569580078, 28.41324234008789, 996.863525390625, 300.8457806552706, 160.5372853463566, 73.59891513733668, 10.284995079040527, -24.536184310913086, -17.135581970214844, -0.0029620276764035225, 0.031077450141310692, 0.017546173185110092, 0.2282562106847763, 0.08053776621818542, 0.0006039924919605255, '2018-04-28 06:46:14.372855', -46:56:10.3, -172:19:48.3, UNKNOWN
10023, 37.45535659790039, 28.398401260375977, 996.83984375, 306.65776620495285, 42.40824499054273, 345.47878559812114, 11.199610710144043, -24.08648681640625, -17.238685607910156, -0.0029620276764035225, 0.03204862028360367, 0.01657138578593731, 0.22795076668262482, 0.07962147146463394, 0.00029855966567993164, '2018-04-28 06:46:47.037202', -47:47:18.6, -169:34:53.2, UNKNOWN
10024, 37.36048889160156, 28.045948028564453, 996.864013671875, 316.0816138443458, 140.34803846174265, 40.679964658813965, 11.946890830993652, -23.80859375, -16.643159866333008, -0.0037025348283350468, 0.030834658071398735, 0.01657138578593731, 0.22428558766841888, 0.08023233711719513, -6.872229278087616e-06, '2018-04-28 06:47:19.720474', -48:33:57.5, -166:44:27.1, UNKNOWN
10025, 37.49330139160156, 28.25370979309082, 996.836181640625, 297.35509636671964, 334.45574990985995, 346.1971831874758, 12.966947555541992, -23.04628562927246, -16.681358337402344, -0.0034556991886347532, 0.030106279999017715, 0.016327690333127975, 0.22703446447849274, 0.08114863187074661, 0.0006039924919605255, '2018-04-28 06:47:52.391972', -49:14:39.3, -163:54:07.6, UNKNOWN
10026, 37.47433090209961, 28.212900161743164, 996.867919921875, 333.04952153523374, 103.28325877967059, 15.612767423706137, 13.116904258728027, -22.499427795410156, -16.136789321899414, -0.0037025348283350468, 0.030106279999017715, 0.019008353352546692, 0.22459101676940918, 0.08023233711719513, 0.0018257228657603264, '2018-04-28 06:48:25.051247', -49:51:41.7, -160:53:35.1, UNKNOWN
10027, 37.51227569580078, 27.990297317504883, 996.83837890625, 296.0347115171295, 264.6742667732311, 9.312460060634743, 13.990501403808594, -22.106237411499023, -16.01911735534668, -0.0037025348283350468, 0.031563032418489456, 0.015109204687178135, 0.2282562106847763, 0.07931603491306305, 0.0006039924919605255, '2018-04-28 06:48:57.688893', -50:23:29.4, -157:48:30.5, UNKNOWN
10028, 37.53125, 28.810216903686523, 996.843505859375, 336.3196982890727, 74.34808443644951, 354.38169172130944, 14.471539497375488, -21.493118286132812, -15.437522888183594, -0.004196206107735634, 0.030349070206284523, 0.01730247773230076, 0.2285616248846054, 0.08114863187074661, -0.0006177378818392754, '2018-04-28 06:49:30.395881', -50:49:06.5, -154:45:13.2, UNKNOWN
10029, 37.47433090209961, 27.155536651611328, 996.867919921875, 303.661734461378, 221.67373851371613, 17.314375866726, 15.379302024841309, -20.87937355041504, -14.988133430480957, -0.006417726632207632, 0.031563032418489456, 0.016815081238746643, 0.22672905027866364, 0.07992690056562424, -6.872229278087616e-06, '2018-04-28 06:50:03.062852', -51:09:57.9, -151:32:54.0, UNKNOWN
10030, 37.43638610839844, 28.13498878479004, 996.85888671875, 336.60062567718256, 51.92661220276491, 339.30384208839706, 15.95781135559082, -21.21127700805664, -14.3744478225708, -0.0034556991886347532, 0.03180582821369171, 0.016083991155028343, 0.23161597549915314, 0.07748343795537949, -0.0003123050555586815, '2018-04-28 06:50:35.775748', -51:25:01.0, -148:17:57.6, UNKNOWN
10031, 37.43638610839844, 28.18692970275879, 996.8447265625, 313.915067594334, 199.77290086461034, 12.895358733169992, 16.650362014770508, -20.38359832763672, -13.989302635192871, -0.002715192036703229, 0.030834658071398735, 0.015352901071310043, 0.2282562106847763, 0.07992690056562424, -0.0006177378818392754, '2018-04-28 06:51:08.476495', -51:33:57.7, -145:07:11.8, UNKNOWN
10032, 37.47433090209961, 28.639554977416992, 996.807373046875, 335.1556137809017, 36.00262379443255, 327.9158079210796, 17.268451690673828, -20.65401268005371, -12.77706241607666, -0.004443041514605284, 0.03059186413884163, 0.01803356595337391, 0.2288670688867569, 0.07962147146463394, -0.0009231707081198692, '2018-04-28 06:51:41.207659', -51:37:17.2, -141:49:32.6, UNKNOWN
10033, 37.43638610839844, 28.494863510131836, 996.819091796875, 333.03154618488554, 157.01230667798308, 13.741987147776106, 17.94196319580078, -20.11899185180664, -12.67628288269043, -0.0034556991886347532, 0.030349070206284523, 0.016083991155028343, 0.2291725128889084, 0.07809430360794067, -0.0003123050555586815, '2018-04-28 06:52:13.863397', -51:34:35.7, -138:31:50.2, UNKNOWN
10034, 37.45535659790039, 28.03110694885254, 996.818115234375, 317.2341467950829, 331.600616431126, 331.47559152591623, 18.639087677001953, -19.65903091430664, -12.244181632995605, -0.0037025348283350468, 0.030834658071398735, 0.017789868637919426, 0.2291725128889084, 0.08023233711719513, 0.0006039924919605255, '2018-04-28 06:52:46.573563', -51:25:54.4, -135:14:59.2, UNKNOWN
10035, 37.49330139160156, 28.750856399536133, 996.8427734375, 349.29219290986055, 109.81706555102897, 1.0410978808198346, 19.06522560119629, -18.885236740112305, -10.910453796386719, -0.0034556991886347532, 0.030349070206284523, 0.016327690333127975, 0.2282562106847763, 0.07992690056562424, 0.00029855966567993164, '2018-04-28 06:53:19.312205', -51:11:49.3, -132:05:44.7, UNKNOWN
10036, 37.45535659790039, 28.428081512451172, 996.862060546875, 314.43463666940227, 271.8310141176513, 353.1052779220485, 19.450210571289062, -18.409631729125977, -10.251245498657227, -0.002715192036703229, 0.030106279999017715, 0.015109204687178135, 0.22795076668262482, 0.0817594975233078, -6.872229278087616e-06, '2018-04-28 06:53:52.032357', -50:51:33.9, -128:53:05.6, UNKNOWN
10037, 37.37946319580078, 27.960617065429688, 996.83544921875, 355.59124138369054, 73.98642591989734, 349.1734312881197, 19.3502140045166, -18.40091323852539, -9.164917945861816, -0.0034556991886347532, 0.030834658071398735, 0.01584029383957386, 0.22489644587039948, 0.07992690056562424, -0.0003123050555586815, '2018-04-28 06:54:24.779121', -50:25:38.6, -125:43:43.4, UNKNOWN
10038, 37.53125, 28.676654815673828, 996.843505859375, 323.25774526563055, 231.46171378304624, 7.675156994876906, 19.750200271606445, -17.65281867980957, -7.541992664337158, -0.006170891225337982, 0.030834658071398735, 0.01803356595337391, 0.22611819207668304, 0.07992690056562424, -0.0003123050555586815, '2018-04-28 06:54:57.483169', -49:55:16.3, -122:43:51.1, UNKNOWN
10039, 37.51227569580078, 28.672945022583008, 996.832763671875, 356.14979717854123, 46.441539997326956, 342.11282227136195, 20.398313522338867, -17.766956329345703, -6.955862998962402, -0.0029620276764035225, 0.031563032418489456, 0.01827726513147354, 0.22703446447849274, 0.0768725723028183, -0.002450333908200264, '2018-04-28 06:55:30.137651', -49:18:45.8, -119:42:46.6, UNKNOWN
10040, 37.47433090209961, 28.101598739624023, 996.857666015625, 334.99830769412716, 207.25852864775587, 11.998080197000002, 20.984739303588867, -17.396081924438477, -6.267777442932129, -0.004443041514605284, 0.0313202403485775, 0.01584029383957386, 0.22642360627651215, 0.07992690056562424, -0.0006177378818392754, '2018-04-28 06:56:02.870892', -48:37:13.4, -116:46:37.9, UNKNOWN
10041, 37.56919860839844, 28.639554977416992, 996.857177734375, 357.04094903502573, 25.00525424952498, 337.0264999247639, 20.689367294311523, -16.8707332611084, -5.303840160369873, -0.0024683563970029354, 0.030349070206284523, 0.016327690333127975, 0.22703446447849274, 0.08084319531917572, 0.0021311556920409203, '2018-04-28 06:56:35.576542', -47:50:54.3, -113:55:45.1, UNKNOWN
10042, 37.43638610839844, 30.375856399536133, 996.810302734375, 352.10941969247455, 163.49158804919725, 17.77849063592295, 21.548688888549805, -16.92691421508789, -4.7725653648376465, -0.0037025348283350468, 0.030349070206284523, 0.017789868637919426, 0.22672905027866364, 0.07992690056562424, 0.00029855966567993164, '2018-04-28 06:57:08.319291', -47:01:40.7, -111:15:18.2, UNKNOWN
10043, 37.47433090209961, 27.838184356689453, 996.868408203125, 334.6555995374272, 323.1389955967207, 344.2353240465109, 21.482383728027344, -15.851449966430664, -3.179492950439453, -0.003949370235204697, 0.031077450141310692, 0.015109204687178135, 0.22703446447849274, 0.08053776621818542, 0.0009094253182411194, '2018-04-28 06:57:41.023516', -46:06:43.7, -108:35:23.4, UNKNOWN
10044, 37.58816909790039, 28.557933807373047, 996.82958984375, 4.926404566239573, 111.00068952286799, 10.002117067735625, 21.68728256225586, -15.736845016479492, -2.0396111011505127, -0.002715192036703229, 0.0313202403485775, 0.01657138578593731, 0.22520187497138977, 0.07962147146463394, 0.0006039924919605255, '2018-04-28 06:58:13.672785', -45:07:47.8, -106:01:09.9, UNKNOWN
10045, 37.43638610839844, 27.949485778808594, 996.830810546875, 327.96018366011714, 271.0469084009339, 3.760082317341842, 22.144323348999023, -15.196521759033203, -0.7463933825492859, -0.004689877387136221, 0.030834658071398735, 0.016815081238746643, 0.22703446447849274, 0.08298122882843018, -0.0015340354293584824, '2018-04-28 06:58:46.406125', -44:07:05.9, -103:37:01.6, UNKNOWN
10046, 37.3984375, 29.615297317504883, 996.828369140625, 6.471923123043957, 71.85483316296309, 1.6113479200249663, 22.017704010009766, -15.18582820892334, 0.5028138160705566, -0.004443041514605284, 0.030106279999017715, 0.015352901071310043, 0.22428558766841888, 0.07931603491306305, -0.002450333908200264, '2018-04-28 06:59:19.167381', -43:01:05.6, -101:13:52.9, UNKNOWN
10047, 37.36048889160156, 28.480022430419922, 996.82373046875, 334.85158840056613, 232.88053531895463, 20.731659527361362, 22.175519943237305, -15.467801094055176, 1.4659680128097534, -0.0029620276764035225, 0.03059186413884163, 0.016083991155028343, 0.22611819207668304, 0.08298122882843018, 0.002436588518321514, '2018-04-28 06:59:51.899418', -41:51:52.3, -98:56:11.4, UNKNOWN
10048, 37.3984375, 28.57277488708496, 996.85693359375, 6.307053882424073, 42.65849970663741, 357.2956151995506, 21.709815979003906, -15.62195110321045, 2.8417232036590576, -0.0037025348283350468, 0.030834658071398735, 0.017546173185110092, 0.22672905027866364, 0.08084319531917572, -0.001228603534400463, '2018-04-28 07:00:24.714308', -40:39:40.3, -96:43:46.6, UNKNOWN
10049, 37.43638610839844, 27.689783096313477, 996.830078125, 346.64572256404415, 209.00041813140587, 30.432870903664785, 22.184606552124023, -15.174842834472656, 4.047654151916504, -0.003208863316103816, 0.030349070206284523, 0.017058778554201126, 0.22642360627651215, 0.07931603491306305, 0.00029855966567993164, '2018-04-28 07:00:57.397664', -39:27:01.7, -94:40:13.5, UNKNOWN
10050, 37.49330139160156, 28.457763671875, 996.83544921875, 6.072230271211742, 20.30252898709322, 358.8223249094847, 21.89372444152832, -14.911108016967773, 4.59455680847168, -0.002715192036703229, 0.030834658071398735, 0.01657138578593731, 0.22795076668262482, 0.08084319531917572, -0.0003123050555586815, '2018-04-28 07:01:30.114723', -38:09:36.5, -92:37:35.4, UNKNOWN
10051, 37.41741180419922, 27.827054977416992, 996.838134765625, 1.2871572599385424, 165.65914858230082, 37.01701958430075, 21.75975799560547, -14.832794189453125, 5.663727283477783, -0.003208863316103816, 0.030834658071398735, 0.01657138578593731, 0.22642360627651215, 0.07992690056562424, -6.872229278087616e-06, '2018-04-28 07:02:02.863557', -36:49:50.5, -90:39:34.3, UNKNOWN
10052, 37.47433090209961, 27.674942016601562, 996.830322265625, 342.6486745174115, 319.92055240320275, 4.79015339135522, 21.625913619995117, -14.72985553741455, 7.785144805908203, -0.0024683563970029354, 0.032291412353515625, 0.015352901071310043, 0.2282562106847763, 0.08023233711719513, -6.872229278087616e-06, '2018-04-28 07:02:35.622167', -35:27:55.1, -88:45:55.2, UNKNOWN
10053, 37.53125, 28.164669036865234, 996.82275390625, 12.600040990252506, 111.78996569278715, 29.230446836135304, 21.33873748779297, -15.066143989562988, 8.293066024780273, -0.002715192036703229, 0.030834658071398735, 0.016083991155028343, 0.22672905027866364, 0.07931603491306305, -0.001228603534400463, '2018-04-28 07:03:08.364357', -34:06:34.7, -86:59:38.6, UNKNOWN
10054, 37.47433090209961, 28.18692970275879, 996.832763671875, 335.1504501578892, 270.4966615312085, 23.209402856337285, 21.73619270324707, -15.27967357635498, 9.8111572265625, -0.003208863316103816, 0.030834658071398735, 0.01584029383957386, 0.22550730407238007, 0.07717800885438919, 0.00029855966567993164, '2018-04-28 07:03:41.011559', -32:40:54.0, -85:13:51.3, UNKNOWN
10055, 37.45535659790039, 29.01797866821289, 996.858642578125, 13.537866944430275, 71.02397480137688, 20.793995248821485, 21.766244888305664, -15.666922569274902, 11.430303573608398, -0.0029620276764035225, 0.031563032418489456, 0.015596598386764526, 0.22703446447849274, 0.07901060581207275, -6.872229278087616e-06, '2018-04-28 07:04:13.717984', -31:13:32.8, -83:31:41.1, UNKNOWN
10056, 37.45535659790039, 28.880708694458008, 996.85888671875, 341.82596457150515, 234.1227554836832, 40.102718051299505, 21.366291046142578, -15.802375793457031, 11.580859184265137, -0.003949370235204697, 0.031563032418489456, 0.016815081238746643, 0.22550730407238007, 0.07839974015951157, 0.0015202900394797325, '2018-04-28 07:04:46.409196', -29:47:22.4, -81:55:50.3, UNKNOWN
10057, 37.43638610839844, 27.878995895385742, 996.828125, 11.171424963074298, 40.67750579071276, 17.163821421945993, 21.743587493896484, -15.960269927978516, 12.794055938720703, -0.0037025348283350468, 0.030349070206284523, 0.013403326272964478, 0.22611819207668304, 0.08053776621818542, 0.0012148581445217133, '2018-04-28 07:05:19.126114', -28:17:07.3, -80:20:05.5, UNKNOWN
10058, 37.47433090209961, 28.565353393554688, 996.85986328125, 351.2202776191533, 209.72680874963672, 50.39957314964681, 21.420631408691406, -16.320743560791016, 13.192130088806152, -0.0029620276764035225, 0.029620693996548653, 0.016815081238746643, 0.22642360627651215, 0.07992690056562424, -0.0003123050555586815, '2018-04-28 07:05:51.850648', -26:45:34.9, -78:47:15.5, UNKNOWN
10059, 37.53125, 28.52083396911621, 996.853759765625, 8.982567900138651, 18.59614111920164, 18.72168341124106, 21.35955047607422, -16.18113899230957, 14.44920825958252, -0.0034556991886347532, 0.030349070206284523, 0.018520960584282875, 0.22581274807453156, 0.07809430360794067, -6.872229278087616e-06, '2018-04-28 07:06:24.678263', -25:12:52.2, -77:17:06.9, UNKNOWN
10060, 37.47433090209961, 27.927227020263672, 996.818603515625, 4.567671505086279, 165.93120867732074, 55.63536735604139, 20.9036808013916, -16.677148818969727, 15.014402389526367, -0.005183548666536808, 0.030834658071398735, 0.015109204687178135, 0.22459101676940918, 0.07778887450695038, 0.0021311556920409203, '2018-04-28 07:06:57.410668', -23:41:56.7, -75:52:04.4, UNKNOWN
10061, 37.45535659790039, 29.17380142211914, 996.83935546875, 346.5615695108277, 318.1436274642051, 24.318355785075138, 20.89148712158203, -17.194015502929688, 15.924769401550293, -0.0037025348283350468, 0.03059186413884163, 0.016815081238746643, 0.2282562106847763, 0.07778887450695038, 0.00029855966567993164, '2018-04-28 07:07:30.115873', -22:07:13.3, -74:26:36.9, UNKNOWN
10062, 37.45535659790039, 28.31678009033203, 996.81787109375, 16.162175887710916, 111.27732584463185, 47.73846997730732, 20.876758575439453, -17.013912200927734, 16.242876052856445, -0.0037025348283350468, 0.03059186413884163, 0.015109204687178135, 0.22489644587039948, 0.07870516926050186, 0.0015202900394797325, '2018-04-28 07:08:02.783952', -20:31:37.1, -73:03:14.3, UNKNOWN
10063, 37.45535659790039, 28.817636489868164, 996.790771484375, 338.49352893583426, 269.59030908872614, 42.501463412335056, 20.76613426208496, -17.490774154663086, 16.592775344848633, -0.003949370235204697, 0.0313202403485775, 0.017058778554201126, 0.2282562106847763, 0.08084319531917572, -0.002755766734480858, '2018-04-28 07:08:35.575463', -18:58:09.0, -71:44:11.8, UNKNOWN
10064, 37.49330139160156, 28.431793212890625, 996.780517578125, 16.38803999827948, 70.04108325905537, 37.92931087626643, 20.71933937072754, -17.425125122070312, 17.271320343017578, -0.0029620276764035225, 0.031077450141310692, 0.017058778554201126, 0.23008881509304047, 0.07901060581207275, 0.00029855966567993164, '2018-04-28 07:09:08.275253', -17:21:03.3, -70:24:22.4, UNKNOWN
10065, 37.49330139160156, 29.474315643310547, 996.765380859375, 342.7551417986464, 233.97560588820446, 57.453270014964474, 20.523666381835938, -18.279634475708008, 18.491329193115234, -0.002715192036703229, 0.03059186413884163, 0.015352901071310043, 0.22581274807453156, 0.08114863187074661, 0.0006039924919605255, '2018-04-28 07:09:41.030124', -15:43:19.1, -69:06:05.5, UNKNOWN
10066, 37.3984375, 28.071918487548828, 996.77197265625, 12.1928353572201, 40.393359675956475, 34.12439690475991, 21.293354034423828, -18.653104782104492, 19.102169036865234, -0.004196206107735634, 0.0313202403485775, 0.015596598386764526, 0.22642360627651215, 0.07992690056562424, 0.0015202900394797325, '2018-04-28 07:10:13.799933', -14:05:00.8, -67:49:10.9, UNKNOWN
10067, 37.37946319580078, 28.34646224975586, 996.78076171875, 351.37207857345686, 209.99912839184512, 67.16127742949206, 20.900390625, -19.06817626953125, 19.41707420349121, -0.0037025348283350468, 0.030106279999017715, 0.01584029383957386, 0.22795076668262482, 0.07962147146463394, -0.001228603534400463, '2018-04-28 07:10:46.565480', -12:29:12.6, -66:35:45.8, UNKNOWN
10068, 37.62611389160156, 28.339040756225586, 996.7529296875, 7.81991517037251, 19.3346023892432, 35.1733944329634, 21.227394104003906, -19.405010223388672, 20.476343154907227, -0.0037025348283350468, 0.030834658071398735, 0.01584029383957386, 0.22703446447849274, 0.08114863187074661, -0.0006177378818392754, '2018-04-28 07:11:19.308395', -10:49:58.9, -65:21:05.5, UNKNOWN
10069, 37.43638610839844, 28.18692970275879, 996.778564453125, 4.579251663937213, 166.2021759420735, 72.78426481465091, 20.908727645874023, -19.851472854614258, 21.498947143554688, -0.003208863316103816, 0.03059186413884163, 0.016327690333127975, 0.22978337109088898, 0.07778887450695038, 0.0015202900394797325, '2018-04-28 07:11:52.051359', -9:10:22.7, -64:07:19.6, UNKNOWN
10070, 37.43638610839844, 28.557933807373047, 996.802490234375, 345.6517498935679, 318.57871734452414, 40.07836159671924, 21.246660232543945, -20.150409698486328, 21.858551025390625, -0.003949370235204697, 0.03180582821369171, 0.015596598386764526, 0.22764535248279572, 0.07931603491306305, -0.002450333908200264, '2018-04-28 07:12:24.851511', -7:30:27.7, -62:54:19.4, UNKNOWN
10071, 37.43638610839844, 28.598743438720703, 996.78125, 15.770514057682167, 111.5832090364217, 62.868448894625686, 20.596044540405273, -20.22727394104004, 23.51441192626953, -0.004443041514605284, 0.030834658071398735, 0.015596598386764526, 0.22733990848064423, 0.07992690056562424, 0.0006039924919605255, '2018-04-28 07:12:57.592280', -5:50:17.4, -61:41:56.1, UNKNOWN
10072, 37.45535659790039, 28.743436813354492, 996.7744140625, 337.61935351453184, 269.92664809402504, 57.43421378718014, 20.606504440307617, -20.84129524230957, 24.24541664123535, -0.003208863316103816, 0.032291412353515625, 0.017058778554201126, 0.22764535248279572, 0.08023233711719513, -0.0009231707081198692, '2018-04-28 07:13:30.366615', -4:12:57.8, -60:32:11.6, UNKNOWN
10073, 37.55022430419922, 29.17751121520996, 996.7880859375, 14.658576336277015, 69.99216544421974, 52.87211870466435, 20.614025115966797, -21.215251922607422, 24.94654655456543, -0.004936712794005871, 0.031077450141310692, 0.01657138578593731, 0.22550730407238007, 0.07992690056562424, 0.0009094253182411194, '2018-04-28 07:14:03.101057', -2:32:27.2, -59:20:36.4, UNKNOWN
10074, 37.3984375, 28.335330963134766, 996.79296875, 341.1078179916025, 233.19520213401714, 72.0482504598795, 21.030616760253906, -21.64668083190918, 26.161083221435547, -0.003208863316103816, 0.03180582821369171, 0.015596598386764526, 0.22520187497138977, 0.07778887450695038, -6.872229278087616e-06, '2018-04-28 07:14:35.809984', -0:51:51.2, -58:09:13.2, UNKNOWN
10075, 37.55022430419922, 27.853025436401367, 996.78466796875, 9.702559484890852, 40.91499829834327, 47.86553198643706, 21.18425178527832, -21.663551330566406, 27.11100196838379, -0.002221520757302642, 0.03059186413884163, 0.016327690333127975, 0.22581274807453156, 0.07901060581207275, 0.0006039924919605255, '2018-04-28 07:15:08.477297', 0:45:44.0, -57:00:03.6, UNKNOWN
10076, 37.3984375, 28.049657821655273, 996.750244140625, 347.4222928745598, 208.35715091537406, 80.46659521570362, 21.511178970336914, -21.511615753173828, 27.66855239868164, -0.004196206107735634, 0.0313202403485775, 0.01657138578593731, 0.22795076668262482, 0.07748343795537949, 0.0006039924919605255, '2018-04-28 07:15:41.172797', 2:26:21.1, -55:48:40.2, UNKNOWN
10077, 37.3984375, 29.841609954833984, 996.7109375, 3.6200531940728258, 20.20784207462933, 47.22943646903378, 21.381202697753906, -22.140514373779297, 28.223634719848633, -0.0037025348283350468, 0.030349070206284523, 0.016083991155028343, 0.2288670688867569, 0.07839974015951157, -0.0006177378818392754, '2018-04-28 07:16:13.869713', 4:06:53.9, -54:37:04.5, UNKNOWN
10078, 37.60714340209961, 28.02739715576172, 996.728515625, 1.386870871466441, 164.24014946147398, 84.17787412387842, 21.73303985595703, -22.867656707763672, 28.9339599609375, -0.004196206107735634, 0.03180582821369171, 0.01437811367213726, 0.23039422929286957, 0.07839974015951157, -0.0009231707081198692, '2018-04-28 07:16:46.636839', 5:47:19.1, -53:25:08.3, UNKNOWN
10079, 37.43638610839844, 28.1461181640625, 996.706787109375, 343.39157028777174, 318.26495894462124, 51.74492575574798, 21.559093475341797, -22.564376831054688, 29.66039276123047, -0.0037025348283350468, 0.030834658071398735, 0.016083991155028343, 0.22642360627651215, 0.07901060581207275, 0.0009094253182411194, '2018-04-28 07:17:19.378214', 7:24:31.3, -52:14:55.3, UNKNOWN
10080, 37.43638610839844, 28.40953254699707, 996.69921875, 12.74261009011912, 110.25557052593297, 72.10482491677472, 21.854721069335938, -22.710142135620117, 30.235498428344727, -0.0029620276764035225, 0.031563032418489456, 0.01657138578593731, 0.22520187497138977, 0.08023233711719513, 0.0009094253182411194, '2018-04-28 07:17:52.071697', 9:04:31.6, -51:01:53.9, UNKNOWN
10081, 37.47433090209961, 28.35759162902832, 996.691650390625, 335.61702891782926, 268.9551561374283, 65.79021940644955, 22.051847457885742, -23.322038650512695, 31.0874080657959, -0.004196206107735634, 0.03180582821369171, 0.019008353352546692, 0.22764535248279572, 0.07748343795537949, 0.0006039924919605255, '2018-04-28 07:18:24.890952', 10:44:14.1, -49:48:06.7, UNKNOWN
10082, 37.3984375, 28.62842559814453, 996.69091796875, 12.627731430921383, 69.8745973980363, 59.69069655308808, 21.91933822631836, -23.336503982543945, 32.236228942871094, -0.004689877387136221, 0.030834658071398735, 0.01584029383957386, 0.22764535248279572, 0.07931603491306305, -0.0009231707081198692, '2018-04-28 07:18:57.606729', 12:23:35.3, -48:33:24.7, UNKNOWN
10083, 37.49330139160156, 28.598743438720703, 996.66357421875, 338.8075878640606, 232.32633376969983, 79.73433746497572, 21.99093246459961, -23.670366287231445, 33.35883331298828, -0.004936712794005871, 0.030349070206284523, 0.016327690333127975, 0.2233692854642868, 0.07901060581207275, -0.0006177378818392754, '2018-04-28 07:19:30.314383', 13:59:31.7, -47:19:57.5, UNKNOWN
10084, 37.53125, 28.52083396911621, 996.610595703125, 7.683097089787045, 41.25912030420144, 54.838106694982486, 22.14036750793457, -23.84691047668457, 33.7873649597168, -0.0037025348283350468, 0.030834658071398735, 0.01803356595337391, 0.22703446447849274, 0.08114863187074661, 0.0018257228657603264, '2018-04-28 07:20:03.190446', 15:37:59.4, -46:03:00.6, UNKNOWN
10085, 37.56919860839844, 28.394691467285156, 996.62548828125, 345.7211830353493, 207.51986534577887, 87.97996039706855, 22.37738609313965, -23.740480422973633, 34.433509826660156, -0.003949370235204697, 0.031077450141310692, 0.01657138578593731, 0.2291725128889084, 0.07809430360794067, 0.0009094253182411194, '2018-04-28 07:20:35.985104', 17:15:53.9, -44:44:40.9, UNKNOWN
10086, 37.55022430419922, 28.4763126373291, 996.609375, 1.2791164197381448, 20.689537750749896, 53.75298771135339, 22.430143356323242, -23.45064926147461, 35.49601364135742, -0.0029620276764035225, 0.030106279999017715, 0.01657138578593731, 0.22703446447849274, 0.08084319531917572, -6.872229278087616e-06, '2018-04-28 07:21:08.741980', 18:53:10.8, -43:24:48.3, UNKNOWN
10087, 37.55022430419922, 28.123859405517578, 996.535888671875, 359.17802344565575, 163.61693568084533, 89.10221511921502, 22.410829544067383, -23.590341567993164, 36.910858154296875, -0.002221520757302642, 0.03059186413884163, 0.01584029383957386, 0.22520187497138977, 0.08084319531917572, -6.872229278087616e-06, '2018-04-28 07:21:41.526038', 20:26:50.7, -42:05:42.2, UNKNOWN
10088, 37.51227569580078, 28.112728118896484, 996.530517578125, 340.34821557853246, 319.0966710798537, 55.047209521327844, 22.542490005493164, -23.72197723388672, 38.01325607299805, -0.004196206107735634, 0.030834658071398735, 0.01584029383957386, 0.22489644587039948, 0.07931603491306305, -6.872229278087616e-06, '2018-04-28 07:22:14.259682', 22:02:40.0, -40:42:15.3, UNKNOWN
10089, 37.47433090209961, 29.537385940551758, 996.552001953125, 10.703048155835258, 110.1456181406741, 76.27172525391357, 22.350122451782227, -23.536603927612305, 38.8338508605957, -0.004689877387136221, 0.031563032418489456, 0.01657138578593731, 0.2285616248846054, 0.07748343795537949, -0.0009231707081198692, '2018-04-28 07:22:47.042972', 23:37:37.2, -39:16:42.8, UNKNOWN
10090, 37.37946319580078, 29.251712799072266, 996.507568359375, 331.70845658038405, 268.67970143839085, 70.7890026335501, 22.62709617614746, -23.518606185913086, 39.82668685913086, -0.0037025348283350468, 0.03204862028360367, 0.01584029383957386, 0.22489644587039948, 0.07992690056562424, -6.872229278087616e-06, '2018-04-28 07:23:19.783909', 25:11:36.7, -37:48:53.0, UNKNOWN
10091, 37.43638610839844, 27.838184356689453, 996.48876953125, 9.497469394682879, 69.59229884945051, 64.25650042832319, 22.24812889099121, -22.85959243774414, 40.79346466064453, -0.005924055352807045, 0.030349070206284523, 0.01657138578593731, 0.22520187497138977, 0.07931603491306305, -0.001228603534400463, '2018-04-28 07:23:52.527852', 26:41:44.6, -36:21:19.8, UNKNOWN
10092, 37.43638610839844, 28.105308532714844, 996.443359375, 336.0807082624666, 231.58054541422612, 82.90845614587488, 22.19026756286621, -23.229467391967773, 42.16464614868164, -0.003208863316103816, 0.032291412353515625, 0.014865507371723652, 0.22489644587039948, 0.07870516926050186, -6.872229278087616e-06, '2018-04-28 07:24:25.438116', 28:13:32.8, -34:48:22.4, UNKNOWN
10093, 37.49330139160156, 27.812213897705078, 996.435546875, 4.287707600536157, 41.69436386377675, 57.54209662512049, 22.197851181030273, -23.686443328857422, 42.62001419067383, -0.0037025348283350468, 0.030834658071398735, 0.01657138578593731, 0.22672905027866364, 0.0768725723028183, -0.0009231707081198692, '2018-04-28 07:24:58.310006', 29:44:04.3, -33:12:29.1, UNKNOWN
10094, 37.53125, 27.70462417602539, 996.407470703125, 342.08402619382116, 206.45079047651015, 90.45623182027833, 21.816390991210938, -23.099538803100586, 43.79155731201172, -0.003949370235204697, 0.03180582821369171, 0.015596598386764526, 0.2288670688867569, 0.0820649266242981, -0.0015340354293584824, '2018-04-28 07:25:31.179544', 31:13:11.8, -31:33:26.1, UNKNOWN
10095, 37.41741180419922, 28.1461181640625, 996.422119140625, 359.1731376192434, 22.26546388285235, 54.76151295362996, 21.30045509338379, -23.050830841064453, 44.71516418457031, -0.004936712794005871, 0.03059186413884163, 0.015596598386764526, 0.22611819207668304, 0.07962147146463394, -6.872229278087616e-06, '2018-04-28 07:26:04.405409', 32:40:47.3, -29:50:58.7, UNKNOWN
10096, 37.47433090209961, 26.550800323486328, 996.4091796875, 356.61938250237654, 163.52039778711637, 92.13969586576806, 21.102237701416016, -22.824708938598633, 45.547035217285156, -0.002715192036703229, 0.031077450141310692, 0.016815081238746643, 0.22550730407238007, 0.07839974015951157, -0.0009231707081198692, '2018-04-28 07:26:37.533573', 34:06:42.3, -28:04:52.2, UNKNOWN
10097, 37.47433090209961, 27.938356399536133, 996.419921875, 338.74454180292685, 320.480296650969, 58.085458664162516, 20.66910743713379, -22.862773895263672, 47.4157829284668, -0.0034556991886347532, 0.03059186413884163, 0.016083991155028343, 0.22550730407238007, 0.0817594975233078, -0.0009231707081198692, '2018-04-28 07:27:10.649473', 35:30:47.6, -26:14:51.5, UNKNOWN
10098, 37.43638610839844, 27.515411376953125, 996.40087890625, 8.768379144182575, 110.6672328573988, 80.71379342214472, 20.70453643798828, -22.696651458740234, 48.07515335083008, -0.004196206107735634, 0.031563032418489456, 0.01876465603709221, 0.22611819207668304, 0.07901060581207275, 0.00029855966567993164, '2018-04-28 07:27:43.674923', 36:52:53.3, -24:20:41.2, UNKNOWN
10099, 37.53125, 29.789669036865234, 996.395751953125, 331.13822969978906, 269.47904530714663, 75.16230445721757, 19.826671600341797, -22.82803726196289, 48.70476531982422, -0.0024683563970029354, 0.031563032418489456, 0.01827726513147354, 0.22611819207668304, 0.07962147146463394, -6.872229278087616e-06, '2018-04-28 07:28:16.661007', 38:12:48.7, -22:22:06.0, UNKNOWN
10100, 37.49330139160156, 28.5801944732666, 996.428955078125, 9.00718560945467, 70.64554817041233, 69.63328681465975, 19.171066284179688, -22.5888671875, 50.508766174316406, -0.003208863316103816, 0.030834658071398735, 0.01584029383957386, 0.22459101676940918, 0.07748343795537949, 0.00029855966567993164, '2018-04-28 07:28:49.823741', 39:30:22.4, -20:18:50.9, UNKNOWN
10101, 37.58816909790039, 28.83989715576172, 996.4462890625, 335.4234323284471, 232.2584826704849, 88.66140154037156, 19.208221435546875, -22.57340431213379, 50.93104553222656, -0.0029620276764035225, 0.03277700021862984, 0.016327690333127975, 0.22489644587039948, 0.0817594975233078, -6.872229278087616e-06, '2018-04-28 07:29:22.922704', 40:45:22.2, -18:10:41.2, UNKNOWN
10102, 37.55022430419922, 26.13898468017578, 996.420654296875, 3.7541549938027403, 42.61600226962159, 63.69500423703478, 18.410503387451172, -22.230907440185547, 52.00713348388672, -0.003208863316103816, 0.031077450141310692, 0.01584029383957386, 0.22703446447849274, 0.0820649266242981, -0.0003123050555586815, '2018-04-28 07:29:56.023509', 41:59:43.6, -15:53:16.0, UNKNOWN
10103, 37.51227569580078, 27.886415481567383, 996.406494140625, 341.8154272971631, 206.8682106574463, 96.37981583080945, 17.765262603759766, -22.321155548095703, 53.02405548095703, -0.003949370235204697, 0.031077450141310692, 0.016815081238746643, 0.22550730407238007, 0.07839974015951157, 0.0009094253182411194, '2018-04-28 07:30:28.958356', 43:08:50.0, -13:34:27.9, UNKNOWN
10104, 37.55022430419922, 28.164669036865234, 996.392578125, 358.50847003315977, 22.630663852489178, 61.4142264882491, 17.43490982055664, -21.946067810058594, 53.31720733642578, -0.004936712794005871, 0.0313202403485775, 0.01584029383957386, 0.22520187497138977, 0.07962147146463394, -0.001228603534400463, '2018-04-28 07:31:01.931866', 44:14:40.6, -11:10:08.6, UNKNOWN
10105, 37.47433090209961, 28.8361873626709, 996.387451171875, 355.8658013279467, 162.63427636495558, 100.36075743760553, 17.146923065185547, -22.057126998901367, 53.27080535888672, -0.004936712794005871, 0.031077450141310692, 0.01730247773230076, 0.22489644587039948, 0.07962147146463394, 0.0009094253182411194, '2018-04-28 07:31:34.897054', 45:17:00.3, -8:40:10.4, UNKNOWN
10106, 37.53125, 27.945775985717773, 996.3955078125, 337.44707394554933, 320.5345590888302, 66.47622311611812, 16.44753646850586, -21.583337783813477, 54.572654724121094, -0.0024683563970029354, 0.030834658071398735, 0.017058778554201126, 0.22489644587039948, 0.08389752358198166, 0.0009094253182411194, '2018-04-28 07:32:07.919314', 46:15:33.2, -6:04:28.7, UNKNOWN
10107, 37.45535659790039, 27.674942016601562, 996.437744140625, 8.541076425020075, 110.41279465043749, 88.12938444554092, 16.029102325439453, -21.74837303161621, 54.74038314819336, -0.002715192036703229, 0.030834658071398735, 0.016327690333127975, 0.22733990848064423, 0.08053776621818542, -0.0009231707081198692, '2018-04-28 07:32:40.823366', 47:10:03.1, -3:23:02.8, UNKNOWN
10108, 37.56919860839844, 27.76398468017578, 996.38525390625, 331.5116463869974, 269.46621138169616, 81.34480727880552, 16.076568603515625, -21.389698028564453, 55.19908142089844, -0.0019746851176023483, 0.03253420814871788, 0.016815081238746643, 0.22672905027866364, 0.08084319531917572, -6.872229278087616e-06, '2018-04-28 07:33:13.736170', 48:00:13.5, -0:35:56.8, UNKNOWN
10109, 37.60714340209961, 28.042238235473633, 996.405517578125, 8.472580726702247, 70.63322650914962, 75.5543778061438, 14.699943542480469, -21.40049171447754, 56.379390716552734, -0.002715192036703229, 0.0313202403485775, 0.015109204687178135, 0.22642360627651215, 0.08084319531917572, -0.0003123050555586815, '2018-04-28 07:33:46.706206', 48:44:29.5, 2:11:21.4, UNKNOWN
10110, 37.47433090209961, 30.179224014282227, 996.427001953125, 333.69351958150673, 231.33950803841637, 94.63510547903222, 14.747869491577148, -21.475374221801758, 56.483455657958984, -0.004443041514605284, 0.031077450141310692, 0.017789868637919426, 0.2236747145652771, 0.07778887450695038, -0.0006177378818392754, '2018-04-28 07:34:19.604608', 49:25:21.4, 5:09:04.3, UNKNOWN
10111, 37.56919860839844, 27.615581512451172, 996.410400390625, 3.4290119492139226, 42.57866504052371, 67.89611699172622, 14.102056503295898, -21.658462524414062, 56.7041015625, -0.004196206107735634, 0.030349070206284523, 0.015109204687178135, 0.22703446447849274, 0.0817594975233078, -0.003061198629438877, '2018-04-28 07:34:52.549427', 50:01:06.6, 8:11:41.5, UNKNOWN
10112, 37.55022430419922, 28.99571990966797, 996.4033203125, 341.10272096293437, 206.5870527504519, 101.48693268833557, 13.474089622497559, -21.521169662475586, 56.7092170715332, -0.004196206107735634, 0.030106279999017715, 0.016083991155028343, 0.2239801436662674, 0.07870516926050186, 0.00029855966567993164, '2018-04-28 07:35:25.599764', 50:31:30.8, 11:18:44.5, UNKNOWN
10113, 37.62611389160156, 27.834474563598633, 996.42333984375, 357.8244846443909, 22.706842659849624, 66.13779407293316, 13.477028846740723, -21.457002639770508, 57.90667724609375, -0.0029620276764035225, 0.03059186413884163, 0.01730247773230076, 0.22459101676940918, 0.07809430360794067, -6.872229278087616e-06, '2018-04-28 07:35:58.547862', 50:56:21.2, 14:29:38.4, UNKNOWN
10114, 37.64508819580078, 27.890125274658203, 996.38134765625, 356.8473217097923, 163.3240981503702, 103.21006647252473, 12.700008392333984, -21.443464279174805, 57.61307144165039, -0.0037025348283350468, 0.03204862028360367, 0.01657138578593731, 0.22550730407238007, 0.07839974015951157, -0.0003123050555586815, '2018-04-28 07:36:31.408258', 51:15:26.8, 17:43:41.9, UNKNOWN
10115, 37.47433090209961, 27.97545623779297, 996.405517578125, 337.43135426517455, 320.5023718223665, 69.22085950200687, 12.613993644714355, -21.601726531982422, 57.66367721557617, -0.002715192036703229, 0.030834658071398735, 0.017058778554201126, 0.22703446447849274, 0.08053776621818542, -6.872229278087616e-06, '2018-04-28 07:37:04.318449', 51:28:38.8, 21:00:08.2, UNKNOWN
10116, 37.56919860839844, 28.962329864501953, 996.4267578125, 9.053968136401027, 110.16963991598503, 91.60431831786578, 12.30272388458252, -21.890138626098633, 58.51642608642578, -0.002221520757302642, 0.02986348792910576, 0.01730247773230076, 0.22459101676940918, 0.08114863187074661, -0.0015340354293584824, '2018-04-28 07:37:37.218754', 51:35:51.1, 24:18:06.3, UNKNOWN
10117, 37.62611389160156, 27.719463348388672, 996.41357421875, 331.06288929814923, 269.1153787149785, 85.89346737922389, 11.289409637451172, -21.816524505615234, 58.87796401977539, -0.0034556991886347532, 0.03059186413884163, 0.016327690333127975, 0.22672905027866364, 0.08023233711719513, -0.0009231707081198692, '2018-04-28 07:38:10.170094', 51:37:00.2, 27:36:42.2, UNKNOWN
10118, 37.62611389160156, 27.827054977416992, 996.427490234375, 9.041055663775117, 70.30507690066553, 79.22274263576342, 10.395843505859375, -21.996673583984375, 59.64384078979492, -0.0029620276764035225, 0.031563032418489456, 0.015109204687178135, 0.22672905027866364, 0.07992690056562424, -0.00214490108191967, '2018-04-28 07:38:43.149988', 51:32:05.5, 30:55:00.8, UNKNOWN
10119, 37.62611389160156, 28.5801944732666, 996.419677734375, 335.2140938605754, 231.54082103401333, 98.97771243256965, 9.876944541931152, -22.004453659057617, 60.0533332824707, -0.0029620276764035225, 0.0313202403485775, 0.015352901071310043, 0.2282562106847763, 0.07931603491306305, -0.0018394682556390762, '2018-04-28 07:39:16.182447', 51:21:09.5, 34:12:07.5, UNKNOWN
10120, 37.72098159790039, 27.700912475585938, 996.447509765625, 4.027023612465689, 42.09105100548733, 73.271626132688, 9.662126541137695, -22.432048797607422, 59.7590217590332, -0.003949370235204697, 0.03204862028360367, 0.015596598386764526, 0.22795076668262482, 0.07901060581207275, -6.872229278087616e-06, '2018-04-28 07:39:49.290371', 51:04:17.4, 37:27:10.0, UNKNOWN
10121, 37.51227569580078, 28.1461181640625, 996.4404296875, 341.8266561281586, 206.57725825918212, 105.61027690913726, 9.092190742492676, -22.802570343017578, 59.54352569580078, -0.0034556991886347532, 0.032291412353515625, 0.015352901071310043, 0.22520187497138977, 0.08114863187074661, -0.0018394682556390762, '2018-04-28 07:40:22.444246', 50:41:37.0, 40:39:19.6, UNKNOWN
10122, 37.64508819580078, 28.658105850219727, 996.45947265625, 358.42735641412395, 22.28311138412037, 70.47376891278651, 8.472651481628418, -23.05780601501465, 60.03564453125, -0.002715192036703229, 0.030106279999017715, 0.015596598386764526, 0.22550730407238007, 0.07870516926050186, 0.00029855966567993164, '2018-04-28 07:40:55.548641', 50:13:18.4, 43:47:53.2, UNKNOWN
10123, 37.796875, 27.60445213317871, 996.468994140625, 356.58749981966116, 163.4396239699918, 107.49277949723032, 8.147011756896973, -23.425949096679688, 59.991817474365234, -0.0037025348283350468, 0.029620693996548653, 0.016815081238746643, 0.22428558766841888, 0.08145406097173691, -0.0009231707081198692, '2018-04-28 07:41:28.515297', 49:39:34.0, 46:52:13.1, UNKNOWN
10124, 37.62611389160156, 27.682363510131836, 996.47509765625, 338.3007656295309, 320.21801397174596, 75.0643322237629, 6.958552837371826, -23.483356475830078, 60.63298034667969, -0.0024683563970029354, 0.032291412353515625, 0.016083991155028343, 0.22520187497138977, 0.07870516926050186, -6.872229278087616e-06, '2018-04-28 07:42:01.357693', 49:00:37.5, 49:51:48.5, UNKNOWN
10125, 37.51227569580078, 27.786243438720703, 996.4658203125, 8.899803082871022, 110.37597310062195, 96.91632035992478, 5.920257568359375, -23.644317626953125, 60.86894607543945, -0.0034556991886347532, 0.030834658071398735, 0.017789868637919426, 0.2291725128889084, 0.07809430360794067, -0.0003123050555586815, '2018-04-28 07:42:34.134435', 48:16:43.8, 52:46:15.2, UNKNOWN
10126, 37.56919860839844, 27.337329864501953, 996.49951171875, 330.87760334143974, 269.26074563108386, 91.04812918356248, 5.823774337768555, -24.06989860534668, 60.843727111816406, -0.0017278495943173766, 0.0313202403485775, 0.016083991155028343, 0.22733990848064423, 0.07992690056562424, -6.872229278087616e-06, '2018-04-28 07:43:06.938660', 47:28:08.9, 55:35:15.7, UNKNOWN
10127, 37.72098159790039, 27.838184356689453, 996.51318359375, 9.131042552316389, 70.4173310596747, 83.82593496651518, 5.223024368286133, -24.64254379272461, 60.734886169433594, -0.002715192036703229, 0.0313202403485775, 0.017058778554201126, 0.22611819207668304, 0.08053776621818542, -6.872229278087616e-06, '2018-04-28 07:43:39.762600', 46:35:09.1, 58:18:38.6, UNKNOWN
10128, 37.56919860839844, 27.893835067749023, 996.53564453125, 334.58278801332756, 231.34831898244568, 103.96150339444202, 4.236333847045898, -24.932878494262695, 60.52140426635742, -0.004443041514605284, 0.0313202403485775, 0.017058778554201126, 0.22489644587039948, 0.08053776621818542, 0.00029855966567993164, '2018-04-28 07:44:12.600003', 45:39:48.2, 60:51:36.5, UNKNOWN
10129, 37.62611389160156, 27.9198055267334, 996.557861328125, 3.218145653402235, 41.96440563789696, 78.37028721602165, 3.520383834838867, -25.562894821166992, 60.696556091308594, -0.004196206107735634, 0.032291412353515625, 0.01584029383957386, 0.22672905027866364, 0.07839974015951157, -0.0015340354293584824, '2018-04-28 07:44:45.416333', 44:38:54.4, 63:23:42.1, UNKNOWN
10130, 37.72098159790039, 27.448631286621094, 996.539794921875, 342.4347717756269, 206.2159002709534, 111.48714242574547, 2.81626558303833, -25.850784301757812, 59.583168029785156, -0.0037025348283350468, 0.030834658071398735, 0.01803356595337391, 0.22978337109088898, 0.07992690056562424, -0.0003123050555586815, '2018-04-28 07:45:18.160193', 43:34:24.0, 65:50:06.6, UNKNOWN
10131, 37.72098159790039, 27.32990837097168, 996.5498046875, 359.2358413705059, 21.45993357025585, 76.67666667923612, 1.9387750625610352, -26.353008270263672, 59.19369888305664, -0.0037025348283350468, 0.03204862028360367, 0.01730247773230076, 0.22611819207668304, 0.08023233711719513, -0.0006177378818392754, '2018-04-28 07:45:50.937040', 42:26:32.3, 68:10:56.7, UNKNOWN
10132, 37.68303680419922, 27.077625274658203, 996.592529296875, 357.37482340925135, 162.75954203433363, 113.88354844699029, 0.9667797684669495, -26.836496353149414, 58.269832611083984, -0.0037025348283350468, 0.03204862028360367, 0.017058778554201126, 0.22764535248279572, 0.07962147146463394, 0.0009094253182411194, '2018-04-28 07:46:23.908741', 41:15:34.2, 70:26:21.9, UNKNOWN
10133, 37.60714340209961, 27.411529541015625, 996.554443359375, 339.5394836147625, 319.58672690751837, 81.02722397296743, 0.27353689074516296, -26.886430740356445, 58.039581298828125, -0.0037025348283350468, 0.030106279999017715, 0.015596598386764526, 0.22703446447849274, 0.07962147146463394, 0.0009094253182411194, '2018-04-28 07:46:56.803941', 40:01:43.9, 72:36:33.7, UNKNOWN
10134, 37.75892639160156, 27.26683807373047, 996.538818359375, 10.202411511372603, 110.62731723188925, 102.84697361624686, -0.5311367511749268, -26.834503173828125, 57.26939010620117, -0.004196206107735634, 0.030349070206284523, 0.016327690333127975, 0.23222683370113373, 0.07778887450695038, 0.0009094253182411194, '2018-04-28 07:47:29.757817', 38:47:35.9, 74:38:01.9, UNKNOWN
10135, 37.73995590209961, 27.559932708740234, 996.591552734375, 332.63802995849716, 269.47832813728377, 96.46685976159209, -1.503779411315918, -27.77553367614746, 57.43357849121094, -0.0037025348283350468, 0.0313202403485775, 0.01584029383957386, 0.2285616248846054, 0.07901060581207275, -6.872229278087616e-06, '2018-04-28 07:48:02.612070', 37:28:44.4, 76:38:35.9, UNKNOWN
10136, 37.64508819580078, 27.845605850219727, 996.58154296875, 9.982559674820939, 70.5817542035644, 90.80444169435476, -2.793809413909912, -27.820602416992188, 55.5162239074707, -0.004196206107735634, 0.03277700021862984, 0.015109204687178135, 0.22733990848064423, 0.08084319531917572, 0.0018257228657603264, '2018-04-28 07:48:35.377861', 36:07:38.0, 78:34:38.3, UNKNOWN
10137, 37.77790069580078, 28.09417724609375, 996.575439453125, 335.3728325795284, 231.8981082294967, 110.98782144647168, -3.035470962524414, -28.46552276611328, 55.41579818725586, -0.005183548666536808, 0.03326258063316345, 0.01584029383957386, 0.22520187497138977, 0.08053776621818542, 0.0015202900394797325, '2018-04-28 07:49:08.199286', 34:44:27.5, 80:26:24.5, UNKNOWN
10138, 37.77790069580078, 29.325912475585938, 996.602294921875, 3.794099220729444, 42.04711239855664, 85.10434147346646, -4.652167797088623, -28.711124420166016, 53.988826751708984, -0.003949370235204697, 0.03180582821369171, 0.016327690333127975, 0.22581274807453156, 0.07962147146463394, 0.0006039924919605255, '2018-04-28 07:49:41.058228', 33:19:23.1, 82:14:09.7, UNKNOWN
10139, 37.75892639160156, 27.71204376220703, 996.603271484375, 341.88276783973754, 206.65555954782712, 116.913864325104, -5.449173927307129, -29.584056854248047, 52.5349235534668, -0.002221520757302642, 0.0313202403485775, 0.016815081238746643, 0.22672905027866364, 0.07748343795537949, 0.0012148581445217133, '2018-04-28 07:50:13.937454', 31:52:34.5, 83:58:09.1, UNKNOWN
10140, 37.796875, 27.367008209228516, 996.623046875, 358.72079649534993, 22.412434185865393, 81.32754739077289, -5.913313388824463, -29.471637725830078, 51.85701370239258, -0.0029620276764035225, 0.030106279999017715, 0.01876465603709221, 0.22611819207668304, 0.08114863187074661, 0.0006039924919605255, '2018-04-28 07:50:46.789033', 30:24:10.5, 85:38:37.8, UNKNOWN
10141, 37.81584930419922, 26.383846282958984, 996.6005859375, 356.2143211218567, 163.524441259105, 118.85097427561132, -6.6404128074646, -29.959169387817383, 50.448516845703125, -0.005183548666536808, 0.031563032418489456, 0.01657138578593731, 0.22733990848064423, 0.08053776621818542, -0.0003123050555586815, '2018-04-28 07:51:19.659634', 28:57:03.7, 87:12:56.4, UNKNOWN
10142, 37.796875, 27.096176147460938, 996.60546875, 337.56388896337677, 320.78322920103744, 84.50861237405796, -7.209733009338379, -30.615510940551758, 48.33418655395508, -0.0034556991886347532, 0.03180582821369171, 0.016083991155028343, 0.22581274807453156, 0.07962147146463394, -0.0015340354293584824, '2018-04-28 07:51:52.564123', 27:25:54.9, 88:47:12.4, UNKNOWN
10143, 37.9296875, 27.459760665893555, 996.628662109375, 9.103597144683985, 110.82694317076121, 107.52677334872946, -8.295279502868652, -30.796955108642578, 47.890010833740234, -0.0037025348283350468, 0.03204862028360367, 0.015596598386764526, 0.2294779270887375, 0.07931603491306305, -0.001228603534400463, '2018-04-28 07:52:25.510149', 25:53:33.4, 90:18:39.7, UNKNOWN
10144, 37.81584930419922, 27.43379020690918, 996.6416015625, 331.6411587264919, 269.82253552050656, 100.83151456577032, -8.935968399047852, -31.139846801757812, 45.334712982177734, -0.002221520757302642, 0.03059186413884163, 0.017058778554201126, 0.22764535248279572, 0.07809430360794067, -0.0009231707081198692, '2018-04-28 07:52:58.305393', 24:20:05.6, 91:47:31.4, UNKNOWN
10145, 37.77790069580078, 27.15924644470215, 996.641357421875, 9.9990136005315, 70.77599112318123, 95.57863464116696, -9.502823829650879, -30.798879623413086, 43.63303756713867, -0.0037025348283350468, 0.032291412353515625, 0.01803356595337391, 0.2291725128889084, 0.08053776621818542, 0.0006039924919605255, '2018-04-28 07:53:31.209108', 22:45:37.6, 93:14:00.3, UNKNOWN
10146, 37.89173889160156, 27.726882934570312, 996.614990234375, 336.9233504079184, 232.6977184756301, 114.04317679808265, -10.648520469665527, -31.33293342590332, 42.32328796386719, -0.004443041514605284, 0.03180582821369171, 0.015596598386764526, 0.22428558766841888, 0.07839974015951157, -0.0003123050555586815, '2018-04-28 07:54:04.113583', 21:10:15.3, 94:38:18.5, UNKNOWN
10147, 37.89173889160156, 27.522830963134766, 996.666259765625, 5.9114928681528935, 42.05636730488201, 89.44224925685492, -10.933948516845703, -32.400856018066406, 40.074161529541016, -0.003949370235204697, 0.032291412353515625, 0.016083991155028343, 0.22642360627651215, 0.07901060581207275, 0.0015202900394797325, '2018-04-28 07:54:37.067097', 19:34:04.0, 96:00:37.5, UNKNOWN
10148, 37.91071319580078, 27.34103775024414, 996.647216796875, 344.35438961166983, 208.3017034396919, 121.40094343996554, -11.06879997253418, -32.32917785644531, 38.6424560546875, -0.003208863316103816, 0.0313202403485775, 0.01730247773230076, 0.22733990848064423, 0.08084319531917572, -0.0003123050555586815, '2018-04-28 07:55:09.953964', 17:57:08.6, 97:21:08.6, UNKNOWN
10149, 37.89173889160156, 27.463470458984375, 996.658447265625, 2.1171616344350803, 21.77335387579481, 87.40391590284803, -11.817545890808105, -32.50676727294922, 36.58414077758789, -0.002715192036703229, 0.0313202403485775, 0.017789868637919426, 0.22489644587039948, 0.08053776621818542, -0.0015340354293584824, '2018-04-28 07:55:42.806681', 16:19:33.9, 98:40:02.5, UNKNOWN
10150, 37.91071319580078, 27.526540756225586, 996.6875, 357.83816594018526, 164.17641013613942, 124.69894126184121, -12.534736633300781, -33.092079162597656, 34.66231918334961, -0.0024683563970029354, 0.03180582821369171, 0.015109204687178135, 0.22978337109088898, 0.08145406097173691, -0.0006177378818392754, '2018-04-28 07:56:15.619428', 14:44:23.2, 99:55:09.7, UNKNOWN
10151, 37.87276840209961, 26.068492889404297, 996.70458984375, 338.87786709552546, 320.42557317533885, 91.26253565179834, -11.533379554748535, -32.4768180847168, 31.758005142211914, -0.003208863316103816, 0.030349070206284523, 0.017789868637919426, 0.22764535248279572, 0.08145406097173691, -0.0003123050555586815, '2018-04-28 07:56:48.393265', 13:05:43.8, 101:11:21.7, UNKNOWN
10152, 37.9296875, 27.047945022583008, 996.67724609375, 9.712591325234309, 110.74072569286814, 114.37722085982047, -12.021069526672363, -32.280723571777344, 30.03378677368164, -0.0037025348283350468, 0.03059186413884163, 0.017058778554201126, 0.22611819207668304, 0.07992690056562424, 0.0009094253182411194, '2018-04-28 07:57:21.163929', 11:26:37.6, 102:26:25.9, UNKNOWN
10153, 37.89173889160156, 28.008846282958984, 996.71533203125, 331.38743085920424, 269.28265687794124, 108.74277241723435, -12.148602485656738, -32.75017547607422, 27.88603973388672, -0.004196206107735634, 0.0313202403485775, 0.019008353352546692, 0.22764535248279572, 0.07778887450695038, -0.0018394682556390762, '2018-04-28 07:57:54.014828', 9:47:08.5, 103:40:31.4, UNKNOWN
10154, 37.91071319580078, 27.5413818359375, 996.731201171875, 10.176360316104528, 70.33638648782087, 102.96163200184385, -12.801294326782227, -32.82152557373047, 25.7670955657959, -0.0024683563970029354, 0.032291412353515625, 0.01827726513147354, 0.22795076668262482, 0.07839974015951157, -0.0009231707081198692, '2018-04-28 07:58:26.963665', 8:07:20.1, 104:53:47.4, UNKNOWN
10155, 38.04352569580078, 27.26683807373047, 996.720947265625, 337.6608503288343, 232.71275855218244, 121.53971922352186, -12.355703353881836, -32.60899353027344, 23.916568756103516, -0.0037025348283350468, 0.03180582821369171, 0.016083991155028343, 0.23008881509304047, 0.07931603491306305, 0.00029855966567993164, '2018-04-28 07:59:00.003260', 6:27:16.0, 106:06:22.6, UNKNOWN
10156, 37.98660659790039, 26.79566192626953, 996.764892578125, 6.892538124964389, 41.99481705517644, 96.49417368808297, -11.98523235321045, -32.856048583984375, 21.859268188476562, -0.0029620276764035225, 0.03180582821369171, 0.01730247773230076, 0.22764535248279572, 0.07778887450695038, 0.0012148581445217133, '2018-04-28 07:59:33.009224', 4:46:59.7, 107:18:25.4, UNKNOWN
10157, 38.04352569580078, 27.05536651611328, 996.737548828125, 345.1677883021902, 208.3981183900158, 129.6634096185516, -12.546836853027344, -32.28004455566406, 18.86135482788086, -0.003949370235204697, 0.031077450141310692, 0.015109204687178135, 0.22611819207668304, 0.07962147146463394, -0.0009231707081198692, '2018-04-28 08:00:06.075680', 3:06:34.4, 108:30:04.4, UNKNOWN
10158, 38.08147430419922, 27.014554977416992, 996.765380859375, 2.5697903733255973, 21.428335407608078, 95.5814691696725, -12.093677520751953, -32.034114837646484, 17.06402015686035, -0.004689877387136221, 0.031077450141310692, 0.015352901071310043, 0.2285616248846054, 0.07962147146463394, -0.0003123050555586815, '2018-04-28 08:00:39.039379', 1:26:03.6, 109:41:27.8, UNKNOWN
10159, 38.04352569580078, 27.359588623046875, 996.7392578125, 359.1444737698961, 164.70133749461158, 133.00539385868217, -11.456642150878906, -31.9989070892334, 14.956942558288574, -0.003949370235204697, 0.03180582821369171, 0.019008353352546692, 0.2294779270887375, 0.07778887450695038, -6.872229278087616e-06, '2018-04-28 08:01:11.972711', -0:14:29.6, 110:52:43.9, UNKNOWN
